[
    {
        "number": 0,
        "id": "spacewalk",
        "name": "스페이스워크",
        "hashtag1":"#고소 공포증",
        "hashtag2":"#과메기",
        "postScript": "머리에서 진동하는 비린내! ⭐️⭐️⭐️⭐️⭐️",
        "location": "경북 포항시 북구 두호동 산8",
        "gallary": ["spacewalk-1", "spacewalk-2", "spacewalk-3"],
        "cover" : "cover-spacewalk",
        "isOpened" : false,
        "latitude" : 36.06520,
        "longitude" : 129.39036
    },
    
    {
        "number": 1,
        "id": "tomatilo",
        "name": "토마틸로",
        "hashtag1":"#멕시코 음식",
        "hashtag2": "#JYP",
        "postScript": "멕시코의 풍미가 물씬! ⭐️⭐️⭐️⭐️⭐️",
        "location": "경북 포항시 북구 해안로 221",
        "gallary": ["tomatilo-1", "tomatilo-2"],
        "cover" : "cover-tomatilo",
        "isOpened" : false,
        "latitude" : 36.0643,
        "longitude" : 129.3875
    },
    
    {
        "number": 2,
        "id": "bridge",
        "name": "영일교",
        "hashtag1": "#해상 누각",
        "hashtag2": "#포스코 전광판",
        "postScript": "니들이 게맛을 알아! ⭐️⭐️⭐️⭐️⭐️",
        "location": "경북 포항시 북구 두호동",
        "gallary": ["bridge-1", "bridge-2"],
        "cover" : "cover-bridge",
        "isOpened" : false,
        "latitude" : 36.06154,
        "longitude" : 129.38298
    },
    
    {
        "number": 3,
        "id": "whale",
        "name": "고래 꼬리 워터 폴리",
        "hashtag1":"#우영우",
        "hashtag2":"#고래밥",
        "postScript": "바다의 심장소리를 들어라! ⭐️⭐️⭐️⭐️⭐️",
        "location": "경북 포항시 북구 영일대해수욕장",
        "gallary": ["whale-1", "whale-2"],
        "cover" : "cover-whale",
        "isOpened" : false,
        "latitude" : 36.0528,
        "longitude" : 129.3783
    },
    
    {
        "number": 4,
        "id": "iFarm",
        "name": "아이팜",
        "hashtag":"#애플디벨로퍼아카데미 #포스텍",
        "postScript": "⭐️⭐️⭐️⭐️⭐️\n글로벌 개발자 타이쿤",
        "location": "경북 포항시 남구 포항공과대학",
        "gallary": ["whale-1", "whale-2"],
        "cover" : "cover-whale",
        "isOpened" : false,
        "latitude" : 36.0141,
        "longitude" : 129.3257
    }
    
]
