[
    {
        "number": 0,
        "id": "spacewalk",
        "name": "스페이스워크",
        "hashtag":"#고소공포증 #과메기",
        "postScript": "⭐️⭐️⭐️⭐️⭐️\n머리에서 진동하는 비린내!",
        "location": "경북 포항시 북구 두호동 산8",
        "gallary": ["spacewalk-1", "spacewalk-2", "spacewalk-3"],
        "cover" : "cover-spacewalk",
        "isOpened" : false,
        "latitude" : 36.06520,
        "longitude" : 129.39036
    },
    
    {
        "number": 1,
        "id": "tomatilo",
        "name": "토마틸로",
        "hashtag":"#박진영남친짤 #멕시코음식",
        "postScript": "⭐️⭐️⭐️⭐️⭐️\n멕시코의 풍미가 물씬!",
        "location": "경북 포항시 북구 해안로 221",
        "gallary": ["tomatilo-1", "tomatilo-2"],
        "cover" : "cover-tomatilo",
        "isOpened" : false,
        "latitude" : 36.0643,
        "longitude" : 129.3875
    },
    
    {
        "number": 2,
        "id": "bridge",
        "name": "영일교",
        "hashtag":"#해상누각 #포스코전광판",
        "postScript": "⭐️⭐️⭐️⭐️⭐️\n니들이 게맛을 알아!",
        "location": "경북 포항시 북구 두호동",
        "gallary": ["bridge-1", "bridge-2"],
        "cover" : "cover-bridge",
        "isOpened" : false,
        "latitude" : 36.06154,
        "longitude" : 129.38298
    },
    
    {
        "number": 3,
        "id": "whale",
        "name": "고래꼬리워터폴리",
        "hashtag":"#우영우 #고래밥",
        "postScript": "⭐️⭐️⭐️⭐️⭐️\n바다의 심장소리를 들어라!",
        "location": "경북 포항시 북구 영일대해수욕장",
        "gallary": ["whale-1", "whale-2"],
        "cover" : "cover-whale",
        "isOpened" : false,
        "latitude" : 36.0528,
        "longitude" : 129.3783
    },
    
    {
        "number": 4,
        "id": "iFarm",
        "name": "아이팜",
        "hashtag":"#애플디벨로퍼아카데미 #포스텍",
        "postScript": "⭐️⭐️⭐️⭐️⭐️\n글로벌 개발자 타이쿤",
        "location": "경북 포항시 남구 포항공과대학",
        "gallary": ["whale-1", "whale-2"],
        "cover" : "cover-whale",
        "isOpened" : false,
        "latitude" : 36.0141,
        "longitude" : 129.3257
    }
    
]
